[{"api_data": true, "site_name": "Bexley - Slade Green FDMS", "site_type": "Suburban", "longitude": 0.184877127, "historical_data": true, "need_prediction": false, "latitude": 51.46598327}, {"api_data": true, "site_name": "Bexley - Slade Green", "site_type": "Suburban", "longitude": 0.184877127, "historical_data": true, "need_prediction": false, "latitude": 51.46598327}, {"api_data": true, "site_name": "Camden - Bloomsbury", "site_type": "Urban Background", "longitude": -0.12584800000000002, "historical_data": true, "need_prediction": true, "latitude": 51.522287}, {"api_data": true, "site_name": "Camden - Euston Road", "site_type": "Roadside", "longitude": -0.129053205, "historical_data": true, "need_prediction": true, "latitude": 51.52770662}, {"api_data": true, "site_name": "Camden - Swiss Cottage", "site_type": "Kerbside", "longitude": -0.175284, "historical_data": true, "need_prediction": true, "latitude": 51.544219}, {"api_data": true, "site_name": "City of London - Farringdon Street", "site_type": "Kerbside", "longitude": -0.104515626, "historical_data": true, "need_prediction": false, "latitude": 51.51452534}, {"api_data": true, "site_name": "City of London - Sir John Cass School", "site_type": "Urban Background", "longitude": -0.077765682, "historical_data": true, "need_prediction": false, "latitude": 51.51384718}, {"api_data": false, "site_name": "Croydon - Norbury Manor", "site_type": "Urban Background", "longitude": -0.127523, "historical_data": true, "need_prediction": false, "latitude": 51.410039000000005}, {"api_data": true, "site_name": "Greenwich - A206 Burrage Grove", "site_type": "Roadside", "longitude": 0.074003, "historical_data": true, "need_prediction": true, "latitude": 51.490532}, {"api_data": true, "site_name": "Greenwich - Eltham", "site_type": "Suburban", "longitude": 0.070766, "historical_data": true, "need_prediction": true, "latitude": 51.45258}, {"api_data": true, "site_name": "Greenwich - Plumstead High Street", "site_type": "Roadside", "longitude": 0.095111, "historical_data": true, "need_prediction": true, "latitude": 51.486957000000004}, {"api_data": true, "site_name": "Greenwich - Westhorne Avenue", "site_type": "Roadside", "longitude": 0.040725, "historical_data": true, "need_prediction": true, "latitude": 51.456357000000004}, {"api_data": false, "site_name": "Greenwich and Bexley - Falconwood FDMS", "site_type": "Roadside", "longitude": 0.08560599999999999, "historical_data": true, "need_prediction": false, "latitude": 51.4563}, {"api_data": false, "site_name": "Harrow - Stanmore", "site_type": "Urban Background", "longitude": -0.298775, "historical_data": true, "need_prediction": false, "latitude": 51.617327}, {"api_data": true, "site_name": "Havering - Rainham", "site_type": "Roadside", "longitude": 0.20546070600000002, "historical_data": true, "need_prediction": true, "latitude": 51.52078746}, {"api_data": false, "site_name": "Hillingdon - Harlington", "site_type": "Urban Background", "longitude": -0.44162700000000005, "historical_data": true, "need_prediction": false, "latitude": 51.48878}, {"api_data": false, "site_name": "Kensington and Chelsea - North Ken", "site_type": "Urban Background", "longitude": -0.21349214, "historical_data": true, "need_prediction": false, "latitude": 51.52104675}, {"api_data": true, "site_name": "Kensington and Chelsea - North Ken FIDAS", "site_type": "Urban Background", "longitude": -0.21349214, "historical_data": true, "need_prediction": true, "latitude": 51.52104675}, {"api_data": true, "site_name": "Lewisham - New Cross", "site_type": "Roadside", "longitude": -0.039641, "historical_data": true, "need_prediction": true, "latitude": 51.474954}, {"api_data": true, "site_name": "Redbridge - Ley Street", "site_type": "Urban Background", "longitude": 0.082907475, "historical_data": true, "need_prediction": false, "latitude": 51.56948433}, {"api_data": true, "site_name": "Richmond Upon Thames - Bushy Park", "site_type": "Suburban", "longitude": -0.345608291, "historical_data": true, "need_prediction": false, "latitude": 51.42525604}, {"api_data": true, "site_name": "Sutton - Beddington Lane north", "site_type": "Industrial", "longitude": -0.141661525, "historical_data": true, "need_prediction": true, "latitude": 51.3892869}, {"api_data": true, "site_name": "Tower Hamlets - Blackwall", "site_type": "Roadside", "longitude": -0.008418493, "historical_data": true, "need_prediction": true, "latitude": 51.51504617}, {"api_data": true, "site_name": "Westminster - Marylebone Road FDMS", "site_type": "Kerbside", "longitude": -0.15459, "historical_data": true, "need_prediction": true, "latitude": 51.52254}]
